year,area,village,master,college,highSchool,secondary,total,lat,lon,state_code
106,松山區,莊敬里,0.08117550349362926,0.2895602137279079,0.4568434032059186,0.17242087957254418,4866,25.0721568,121.5669693,554427016
106,松山區,東榮里,0.1581815574358239,0.38706439122328984,0.3843395955829629,0.07041445575792342,6973,25.0604219,121.557694,554226992
106,松山區,三民里,0.13477698771816418,0.3831609566903685,0.3926955397543633,0.08936651583710407,6188,25.0596604,121.5623318,554126992
106,松山區,新益里,0.10323647531301677,0.324120009449563,0.43775100401606426,0.134892511221356,4233,25.0620451,121.5676828,554226998
106,松山區,富錦里,0.12819420783645655,0.3649914821124361,0.40396081771720616,0.10285349233390119,4696,25.0600662,121.5648289,554126993
106,松山區,新東里,0.1100607697501688,0.3182534323655188,0.45082151699302275,0.12086428089128967,4443,25.0573948,121.5705365,554126989
106,松山區,富泰里,0.13813886210221793,0.36861137897782065,0.40742526518804245,0.085824493731919,4148,25.05783,121.5644722,554126989
106,松山區,介壽里,0.15967035797064125,0.35616791140870463,0.39917589492660316,0.08498583569405099,3883,25.0574338,121.559121,554126987
106,松山區,精忠里,0.1588711784687745,0.3799320616671022,0.3929971256859159,0.06819963417820747,3827,25.0649138,121.5526993,554327000
106,松山區,東光里,0.12039573820395738,0.36879756468797564,0.41126331811263317,0.09954337899543379,6570,25.0527836,121.561975,554026978
106,松山區,龍田里,0.16762484500056363,0.3903731259159058,0.3780858978694623,0.0639161312140683,8871,25.0551182,121.557694,554026982
106,松山區,東昌里,0.15835777126099707,0.3485546711353163,0.4046920821114369,0.08839547549224969,2387,25.0575322,121.5544832,554126986
106,松山區,東勢里,0.13714285714285715,0.35428571428571426,0.41194805194805195,0.09662337662337663,3850,25.0527232,121.5551967,554026976
106,松山區,中華里,0.1810781476121563,0.39399421128798845,0.3578147612156295,0.06711287988422576,5528,25.0541473,121.5505587,554026978
106,松山區,民有里,0.13955533224469288,0.38022861449566636,0.3925386258007788,0.08767742745886195,7961,25.0601237,121.5477044,554126990
106,松山區,民福里,0.10101522842639594,0.33756345177664976,0.43214890016920476,0.12927241962774957,5910,25.063112,121.5462773,554226995
106,松山區,慈祐里,0.0734094616639478,0.27379010331702014,0.4722675367047308,0.18053289831430125,7356,25.0507461,121.5762438,553926976
106,松山區,安平里,0.09733000131527028,0.30803630145995003,0.4296988031040379,0.1649348941207418,7603,25.0527643,121.5676828,554026979
106,松山區,鵬程里,0.09740657545435981,0.32407596487645496,0.45987339187257503,0.11864406779661017,4897,25.0554159,121.5676828,554026984
106,松山區,自強里,0.13823091886943586,0.3503833390548118,0.41377732005950335,0.097608422016249,8739,25.0550991,121.563402,554026983
106,松山區,吉祥里,0.12607449856733524,0.35764522010940347,0.41872883563427976,0.09755144568898151,7678,25.050468,121.560548,553926972
106,松山區,新聚里,0.11426222770242499,0.32826414577339363,0.4418413481298808,0.11563227839430058,7299,25.0501126,121.5676828,553926973
106,松山區,復盛里,0.10821988626572462,0.3236257108392211,0.43684301223505084,0.13131139066000344,5803,25.0468264,121.559121,553926964
106,松山區,中正里,0.15392038600723765,0.3706875753920386,0.39843184559710493,0.07696019300361882,8290,25.0503465,121.5469909,553926969
106,松山區,中崙里,0.11992209237618252,0.3280467445742905,0.4493600445186422,0.10267111853088481,3594,25.0462094,121.5448501,553826959
106,松山區,美仁里,0.1326903890921184,0.3511805786498171,0.4040571998669771,0.11207183239108746,3007,25.0498332,121.5519858,553926969
106,松山區,吉仁里,0.12233736327000576,0.35895221646516984,0.4265975820379965,0.09211283822682786,3474,25.0465976,121.5530561,553926962
106,松山區,敦化里,0.13790283003435302,0.35776214624570585,0.40667430067070176,0.09766072304923933,6113,25.0461912,121.5505587,553826960
106,松山區,復源里,0.1375316684762939,0.32971407889974663,0.4249004705030764,0.1078537821208831,2763,25.0462614,121.5544832,553826961
106,松山區,復建里,0.13737373737373737,0.35,0.420959595959596,0.09166666666666666,3960,25.0461728,121.556267,553826961
106,松山區,復勢里,0.13130044843049327,0.3494170403587444,0.4209865470852018,0.09829596412556053,5575,25.0501507,121.556267,553926971
106,松山區,福成里,0.16131756756756757,0.36655405405405406,0.3893581081081081,0.08277027027027027,2368,25.0468634,121.5477044,553926961
106,松山區,松基里,0.13268411442483263,0.3527084601339014,0.38618381010346925,0.12842361533779673,3286,25.0564818,121.5462773,554126982
106,信義區,西村里,0.11317598959301245,0.31313882178033825,0.4291023973239175,0.14458279130273183,5381,25.0357054,121.5641155,553626937
106,信義區,正和里,0.149159151840117,0.3719229831830368,0.4014135998050207,0.07750426517182549,4103,25.0366343,121.5587643,553626938
106,信義區,興隆里,0.13284559106661534,0.3627262225644975,0.3796688486715441,0.12475933769734308,2597,25.0398605,121.560548,553726947
106,信義區,中興里,0.14132153019285487,0.36705659184318684,0.4027821688270629,0.08883970913689536,3163,25.0326563,121.5587643,553526928
106,信義區,新仁里,0.13485752153744202,0.37309476474486414,0.4039098740888005,0.08813783962889331,3018,25.0444919,121.563402,553826959
106,信義區,興雅里,0.11450816559058109,0.32491454614508164,0.43790353209266997,0.1226737561716673,5266,25.0408315,121.5676828,553726951
106,信義區,敦厚里,0.13751837077472182,0.3384421583035902,0.4125551123241654,0.11148435859752256,4763,25.0444729,121.5691097,553826960
106,信義區,廣居里,0.1345104794717198,0.35300028710881426,0.410565604364054,0.101923629055412,6966,25.0398229,121.5719634,553726950
106,信義區,安康里,0.1612054794520548,0.36383561643835616,0.39002739726027397,0.08493150684931507,9125,25.0363401,121.5726768,553626941
106,信義區,六藝里,0.08566275924256087,0.2762248271716261,0.4628794709948903,0.17523294259092276,3327,25.044384,121.5708932,553826960
106,信義區,雅祥里,0.10608048993875765,0.28937007874015747,0.43657042869641294,0.1679790026246719,4572,25.0481141,121.5705365,553926969
106,信義區,五常里,0.09192364170337738,0.28046989720998533,0.46079295154185024,0.16681350954478708,3405,25.0463631,121.5737469,553826966
106,信義區,五全里,0.09144350097975179,0.29327237099934683,0.45068582625734815,0.16459830176355322,4593,25.0443743,121.5737469,553826961
106,信義區,永吉里,0.049878015722418,0.23475196530224993,0.448902141501762,0.2664678774735701,3689,25.0474218,121.5790974,553926969
106,信義區,長春里,0.06428571428571428,0.2645408163265306,0.4556122448979592,0.21556122448979592,3920,25.0427122,121.5751737,553826957
106,信義區,四育里,0.08119079837618404,0.28706746568722213,0.4567948965783878,0.17494683935820607,5173,25.0480946,121.5762438,553926970
106,信義區,四維里,0.09428284854563691,0.3283851554663992,0.4345035105315948,0.14282848545636911,4985,25.0443646,121.5766005,553826962
106,信義區,永春里,0.08670520231213873,0.2776789684304135,0.451089373054691,0.1845264562027568,4498,25.0434446,121.5790974,553826960
106,信義區,富台里,0.11626721060683325,0.3179500254971953,0.4382967873533911,0.12748597654258031,3922,25.0415546,121.5744603,553726954
106,信義區,國業里,0.12479523454951601,0.33581533879374537,0.4198064035740879,0.11958302308265079,6715,25.0375675,121.5773139,553726945
106,信義區,松隆里,0.06749049429657794,0.23431558935361216,0.47338403041825095,0.22480988593155893,2104,25.0316711,121.5812375,553526930
106,信義區,松友里,0.10261535898717308,0.3146759953356655,0.45294019656838247,0.12976844910877894,6003,25.032185,121.5762438,553526931
106,信義區,松光里,0.09973810563072893,0.29965080750763856,0.4308162374508948,0.16979484941073766,4582,25.0398828,121.5787407,553726951
106,信義區,中坡里,0.08665218440743423,0.2838522809558291,0.4581221337195269,0.17137340091720976,4143,25.0314933,121.5848043,553526931
106,信義區,中行里,0.07453924914675768,0.2809556313993174,0.45802047781569966,0.18648464163822526,7325,25.0356289,121.5869443,553626942
106,信義區,大道里,0.1023749550197913,0.30928391507736597,0.4255127743792731,0.16282835552356964,5558,25.0414461,121.5819509,553726956
106,信義區,大仁里,0.08044752264251465,0.256259989344699,0.45098561534363346,0.2123068726691529,3754,25.0387946,121.5819509,553726949
106,信義區,景新里,0.13056702150771235,0.36063436888985445,0.3990875515967847,0.1097110580056485,4603,25.0312326,121.563402,553526925
106,信義區,惠安里,0.08538587848932677,0.2914614121510673,0.45582922824302136,0.16732348111658457,6090,25.0226049,121.5662559,553326901
106,信義區,三張里,0.11512915129151291,0.315990159901599,0.4314883148831488,0.13739237392373924,8130,25.0292346,121.5662559,553526920
106,信義區,三犁里,0.12620142081069788,0.3336815712494776,0.4126619306310071,0.1274550773088174,4786,25.0310368,121.5726768,553526927
106,信義區,六合里,0.12596153846153846,0.3310897435897436,0.42083333333333334,0.12211538461538461,6240,25.0217371,121.578384,553326901
106,信義區,泰和里,0.08307905686546463,0.2714285714285714,0.4676837725381415,0.17780859916782246,7210,25.0184501,121.5698231,553226889
106,信義區,景聯里,0.1224871435250117,0.3319308087891538,0.42028985507246375,0.12529219261337074,4278,25.0295888,121.559121,553526920
106,信義區,景勤里,0.09327956989247312,0.2752688172043011,0.45564516129032256,0.17580645161290323,3720,25.0269368,121.559121,553426912
106,信義區,雙和里,0.10549043800123381,0.3158544108574954,0.4435533621221468,0.135101789019124,6484,25.0236129,121.561975,553326903
106,信義區,嘉興里,0.09986320109439124,0.32147742818057456,0.4473324213406293,0.13132694938440492,2924,25.0276883,121.5573373,553426914
106,信義區,黎順里,0.12150764364786505,0.31945176594623087,0.4151291512915129,0.14391143911439114,3794,25.0243733,121.5573373,553426904
106,信義區,黎平里,0.11231771641327955,0.32112938256282964,0.42212224635432827,0.1444306546695625,6446,25.0223046,121.556267,553326898
106,信義區,黎忠里,0.08638097374915862,0.27238052501682747,0.45636078079425624,0.1848777204397577,4457,25.0203068,121.559121,553326893
106,信義區,黎安里,0.030659172202350538,0.17526826775677057,0.45937659683188553,0.33469596320899336,1957,25.0111663,121.5669693,553126865
106,大安區,德安里,0.1656441717791411,0.3886799920839106,0.37344151988917473,0.0722343162477736,5053,25.0349287,121.5477044,553626932
106,大安區,仁慈里,0.19499028287626863,0.3828546750161952,0.35283955949039086,0.06931548261714532,4631,25.0356006,121.5448501,553626933
106,大安區,和安里,0.18255410540227987,0.36510821080455974,0.3763423095985462,0.07599537419461425,6053,25.0357773,121.5412821,553626932
106,大安區,民炤里,0.2004779980317728,0.3833825390130747,0.3461268100660762,0.07001265288907633,7113,25.0352993,121.5348594,553626930
106,大安區,仁愛里,0.15133976420150053,0.4042872454448017,0.359914255091104,0.08445873526259379,4665,25.039738,121.5469909,553726944
106,大安區,義村里,0.1409961685823755,0.36130268199233717,0.40306513409961686,0.0946360153256705,5220,25.0392606,121.5405685,553726941
106,大安區,民輝里,0.16607717041800643,0.3580385852090032,0.3720257234726688,0.10385852090032155,6220,25.0397731,121.535573,553726941
106,大安區,昌隆里,0.15875725503584842,0.3810174120860362,0.3656538067599863,0.09457152611812905,2929,25.043575,121.5391412,553826951
106,大安區,誠安里,0.1284427966101695,0.3622881355932203,0.40625,0.10301906779661017,3776,25.0429031,121.5419957,553826950
106,大安區,光武里,0.14177215189873418,0.3718540580789278,0.38823529411764707,0.098138495904691,6715,25.0432212,121.5462773,553826952
106,大安區,龍坡里,0.24483369415469397,0.3733517024207833,0.3170635701633537,0.06475103326116906,5081,25.023699,121.5334321,553326897
106,大安區,龍泉里,0.2022552783109405,0.3579654510556622,0.35460652591170827,0.08517274472168906,4168,25.025449,121.5302205,553426901
106,大安區,古風里,0.19700614808874634,0.3683507083667469,0.35391606522320235,0.08072707832130446,3741,25.0220534,121.52915,553326891
106,大安區,古莊里,0.19387916075090708,0.3699321659567755,0.3528947783562076,0.0832938949361098,6339,25.0240509,121.5262952,553426896
106,大安區,龍安里,0.1793221793221793,0.31931931931931934,0.38538538538538536,0.11597311597311598,6993,25.0280135,121.5320047,553426909
106,大安區,錦安里,0.21878063124877475,0.371691825132327,0.34679474612821015,0.0627327974906881,5101,25.0276942,121.5277226,553426907
106,大安區,福住里,0.20926339285714285,0.38392857142857145,0.33947172619047616,0.06733630952380952,5376,25.0319922,121.5320047,553526920
106,大安區,永康里,0.17028431672271477,0.3601345154387038,0.3910119229593397,0.07856924487924183,3271,25.0319208,121.5280795,553526919
106,大安區,光明里,0.19107438016528924,0.35933884297520663,0.3702479338842975,0.07933884297520662,3025,25.0336709,121.5248678,553626923
106,大安區,錦泰里,0.21056020605280104,0.3805537669027688,0.34417256922086287,0.06471345782356729,3106,25.0310182,121.5248678,553526916
106,大安區,錦華里,0.20998561742346414,0.38339839737004316,0.335319498664475,0.07129648654201767,4867,25.0283656,121.5248678,553426909
106,大安區,龍圖里,0.1722394389169793,0.3770999836894471,0.37318545098678846,0.0774751264067852,6131,25.0309678,121.5419957,553526920
106,大安區,新龍里,0.17337357478202547,0.3950368879946345,0.36485580147551977,0.06673373574782025,5964,25.0292347,121.539498,553526914
106,大安區,龍陣里,0.15461973601508486,0.36455059710873666,0.382149591451917,0.09868007542426147,3182,25.0279,121.5423525,553426911
106,大安區,龍雲里,0.15505823247316738,0.3516784654030601,0.4012331582553094,0.09203014386846312,4379,25.0299602,121.5462773,553526918
106,大安區,龍生里,0.18807969769838542,0.36636894537959463,0.37238062521470283,0.07317073170731707,5822,25.0257514,121.5402117,553426904
106,大安區,住安里,0.11570945945945946,0.3217905405405405,0.4206081081081081,0.14189189189189189,4736,25.0322765,121.5477044,553526924
106,大安區,義安里,0.16707869798104655,0.3860733415739596,0.365265760197775,0.0815822002472188,4854,25.0316047,121.5505587,553526923
106,大安區,通化里,0.09959096567668504,0.2966388049084119,0.4367775208963187,0.1669927085185844,5623,25.0315868,121.556267,553526924
106,大安區,通安里,0.11065006915629322,0.319304485279589,0.42679312388855956,0.14325232167555818,5061,25.0309328,121.5534129,553526922
106,大安區,臨江里,0.08370623848381153,0.2732297973150829,0.4593314030007897,0.18373256120031586,3799,25.0288553,121.5551967,553526917
106,大安區,法治里,0.1391689205802803,0.3535775756085567,0.4047209245143841,0.10253257929677895,4067,25.0269546,121.5534129,553426911
106,大安區,全安里,0.16275586620069896,0.4023964053919121,0.35846230654018973,0.0763854218671992,4006,25.0263004,121.5505587,553426908
106,大安區,群賢里,0.16002256487401278,0.38849191425347873,0.3711921775103422,0.08029334336216623,5318,25.025646,121.5477044,553426906
106,大安區,群英里,0.168703007518797,0.3775062656641604,0.38032581453634084,0.07346491228070176,6384,25.0270604,121.5459205,553426910
106,大安區,虎嘯里,0.17114773055796473,0.38652789823648454,0.3686036426712923,0.07372072853425846,3459,25.0230734,121.5487748,553326899
106,大安區,臥龍里,0.1752349364289663,0.36981757877280264,0.3687119955776672,0.08623548922056384,1809,25.0223393,121.5448501,553326895
106,大安區,龍淵里,0.20460772104607722,0.3655043586550436,0.3519302615193026,0.07795765877957658,8030,25.0230108,121.5419957,553326897
106,大安區,龍門里,0.2168931521449507,0.3991473487876366,0.32427391420197177,0.05968558486544098,3753,25.0318159,121.535573,553526920
106,大安區,大學里,0.21663107314468766,0.3619861185264282,0.347437266417512,0.07394554191137213,7492,25.0200558,121.5320047,553326886
106,大安區,芳和里,0.11322549952426261,0.2945765937202664,0.43710751665080877,0.15509039010466222,5255,25.020996,121.5505587,553326893
106,大安區,黎元里,0.08886679920477138,0.24930417495029822,0.4747514910536779,0.1870775347912525,5030,25.0163461,121.5534129,553226879
106,大安區,黎孝里,0.10699001426533523,0.33437945791726104,0.425962910128388,0.1326676176890157,7010,25.0170005,121.556267,553226882
106,大安區,黎和里,0.10986042323277803,0.314948221521837,0.4257091400270149,0.1494822152183701,4442,25.0125099,121.5612615,553126869
106,大安區,建安里,0.15638321741081446,0.3838905093111959,0.37917881983396906,0.08054745344402064,4457,25.0435392,121.5505587,553826954
106,大安區,建倫里,0.1578372474057892,0.3832150009102494,0.38467139996359,0.07427635172037138,5493,25.039561,121.5505587,553726944
106,大安區,敦安里,0.1805204192265992,0.37368991687748465,0.3747741235995663,0.07101554029634984,5534,25.0355829,121.5505587,553626934
106,大安區,正聲里,0.162199953390818,0.3824283383826614,0.37403868562106735,0.08133302260545328,4291,25.0395429,121.556267,553726945
106,大安區,敦煌里,0.18516452872281094,0.40472206729875443,0.3441160066926938,0.06599739728574085,5379,25.0349109,121.5534129,553626933
106,大安區,華聲里,0.15710526315789475,0.3678947368421053,0.3868421052631579,0.0881578947368421,3800,25.0435208,121.556267,553826955
106,大安區,車層里,0.15617838885950996,0.39749691521240965,0.36682531288559844,0.07949938304248193,5673,25.0404625,121.5537697,553726947
106,大安區,光信里,0.15133876600698487,0.37674621653084983,0.37878346915017463,0.09313154831199069,6872,25.0355649,121.556267,553626935
106,大安區,學府里,0.18051575931232092,0.19484240687679083,0.4154727793696275,0.20916905444126074,2443,25.0135679,121.5398548,553126867
106,中山區,正守里,0.10309278350515463,0.31890034364261166,0.4302405498281787,0.14776632302405499,2910,25.0472525,121.52915,553926958
106,中山區,正義里,0.07461459403905447,0.2828365878725591,0.4832476875642343,0.1593011305241521,4865,25.0505768,121.5262952,553926965
106,中山區,正得里,0.11137370753323486,0.34091580502215657,0.41624815361890694,0.13146233382570163,3385,25.0499222,121.5234403,553926963
106,中山區,民安里,0.11140267175572519,0.3074904580152672,0.43177480916030536,0.14933206106870228,4192,25.0533262,121.521656,554026970
106,中山區,康樂里,0.10137672090112641,0.2957863996662495,0.4568210262828536,0.14601585314977056,2397,25.0535652,121.5248678,554026971
106,中山區,中山里,0.09593975114603798,0.29944335297969876,0.4567779960707269,0.14783889980353634,6108,25.0562177,121.5248678,554126977
106,中山區,聚盛里,0.08329008822003113,0.2688116242864556,0.478463933575506,0.16943435391800726,3854,25.0591177,121.5252246,554126983
106,中山區,集英里,0.0968918490326673,0.30050745321915634,0.4486203615604186,0.1539803361877577,6306,25.0638568,121.5205854,554226991
106,中山區,聚葉里,0.09771366358192705,0.2909635274904736,0.4531845400108873,0.15813826891671204,3674,25.0615227,121.5248678,554226987
106,中山區,恆安里,0.09699977441912926,0.31423415294383034,0.4466501240694789,0.14211594856756146,4433,25.0638391,121.5262952,554226992
106,中山區,晴光里,0.10387783805505324,0.31424552943540285,0.44022503516174405,0.1416515973477999,4977,25.0658373,121.5234403,554326995
106,中山區,圓山里,0.0873077925462601,0.29371905134219445,0.4573885848318999,0.16158457127964557,3837,25.0716373,121.5241541,554427005
106,中山區,劍潭里,0.10254110612855008,0.33542600896860986,0.41973094170403585,0.14230194319880418,3345,25.0825265,121.5398548,554627025
106,中山區,大直里,0.14628529875166646,0.3520785359350382,0.3920736880378136,0.10956247727548175,8251,25.0874745,121.5469909,554827033
106,中山區,成功里,0.16165283540802214,0.37655601659751037,0.36929460580912865,0.09249654218533887,5784,25.0834768,121.5526993,554727029
106,中山區,永安里,0.15468881666064765,0.3525941976646202,0.39147706753340555,0.10123991814132659,8307,25.0786876,121.5477044,554627021
106,中山區,大佳里,0.030211480362537766,0.19536757301107754,0.4300100704934542,0.34441087613293053,993,25.072908,121.5412821,554427011
106,中山區,新喜里,0.07530612244897959,0.26755102040816325,0.4769387755102041,0.18020408163265306,4900,25.0664735,121.5320047,554326998
106,中山區,新庄里,0.07563208369659982,0.26503923278116825,0.4734088927637315,0.18591979075850043,4588,25.070293,121.5298637,554427004
106,中山區,新福里,0.08368915456874466,0.2790350128095645,0.4570879590093937,0.18018787361229718,4684,25.0638211,121.5320047,554226993
106,中山區,松江里,0.10131332082551595,0.32867132867132864,0.43765990107453523,0.13235544942862015,5863,25.0604967,121.5348594,554226987
106,中山區,新生里,0.07981428255582577,0.276807428697767,0.45434446164050407,0.18903382710590316,4523,25.0615049,121.5305774,554226988
106,中山區,中庄里,0.08198103266596417,0.2655426765015806,0.4680716543730242,0.18440463645943098,4745,25.0588525,121.5305774,554126983
106,中山區,行政里,0.06684643769514619,0.2357365881351121,0.4872267953448765,0.21019017882486518,7046,25.0644751,121.5348594,554226995
106,中山區,行仁里,0.06924207993583746,0.253843069108408,0.47520384975270685,0.20171100120304772,7481,25.064949,121.539327,554326997
106,中山區,行孝里,0.07370941990420436,0.25997871208089407,0.471261309207025,0.19505055880787653,3758,25.0667912,121.5362867,554327000
106,中山區,下埤里,0.08699409477171252,0.31412933890249173,0.44332421143597867,0.15555235488981708,6943,25.0654466,121.5419957,554326998
106,中山區,江寧里,0.12694136291600633,0.35800316957210776,0.4055467511885895,0.10950871632329635,6310,25.0614684,121.5419957,554226991
106,中山區,江山里,0.11794574205715944,0.33164079500942983,0.4178151748150297,0.13259828811838095,6893,25.0591524,121.5405685,554126986
106,中山區,中吉里,0.11452513966480447,0.3324022346368715,0.4311652035115722,0.1219074221867518,5012,25.0545379,121.5320047,554026975
106,中山區,中原里,0.10898412007831194,0.3182510332825756,0.43463128127039374,0.13813356536871874,4597,25.0552099,121.52915,554026975
106,中山區,興亞里,0.12981952420016407,0.34351927809680066,0.42329778506972926,0.10336341263330599,4876,25.0495691,121.5305774,553926964
106,中山區,中央里,0.10800859159251304,0.32893525621356245,0.44492175513961335,0.11813439705431114,3259,25.0551921,121.5348594,554026977
106,中山區,朱馥里,0.09546048944517094,0.29590883616663555,0.4373248645619279,0.17130580982626564,5353,25.0568363,121.5391412,554126981
106,中山區,龍洲里,0.129825318093595,0.3538926029760621,0.4157860685788225,0.10049601035152038,4637,25.0562435,121.5430661,554126981
106,中山區,朱園里,0.14035928143712575,0.34682634730538925,0.41604790419161675,0.09676646706586826,4175,25.0485613,121.5348594,553926962
106,中山區,埤頭里,0.10129378352792678,0.30735247712212055,0.44493531082360366,0.146418428526349,3169,25.0456437,121.5402117,553826957
106,中山區,朱崙里,0.11533934876422126,0.319733228717144,0.4335033346410357,0.13142408787759907,2549,25.0471379,121.539498,553926960
106,中山區,力行里,0.136,0.346,0.4007272727272727,0.11727272727272728,5500,25.0498696,121.5405685,553926966
106,中山區,復華里,0.1247053276756247,0.3338048090523338,0.43234323432343236,0.10914662894860915,4242,25.053848,121.5405685,554026975
106,中山區,金泰里,0.1433539996975654,0.3282927566913655,0.40919401179494935,0.11915923181611976,6613,25.0788061,121.5612615,554627025
106,中山區,北安里,0.11573311367380561,0.32784184514003295,0.4468698517298188,0.10955518945634267,2428,25.0879492,121.5534129,554827035
106,中正區,水源里,0.1340433345574734,0.302240176276166,0.3980903415350716,0.16562614763128902,2723,25.012098,121.5320047,553126861
106,中正區,富水里,0.1534740545294635,0.2911169744942832,0.39313984168865435,0.16226912928759896,2274,25.014431,121.5277226,553126867
106,中正區,文盛里,0.15171441991545326,0.3442930953499295,0.3879755753875059,0.11601690934711131,2129,25.0174912,121.5302205,553226877
106,中正區,林興里,0.15753591429267105,0.3102020939858778,0.4037009982955929,0.12856099342585828,4107,25.0185858,121.5241541,553226880
106,中正區,河堤里,0.15942371280113368,0.36254133207368916,0.38521492678318375,0.09282002834199339,4234,25.022405,121.5220129,553326891
106,中正區,頂東里,0.1461038961038961,0.35912698412698413,0.3795093795093795,0.11525974025974026,5544,25.0228125,121.5245109,553326892
106,中正區,網溪里,0.14045686237492921,0.35605059467623185,0.38965452142722296,0.11383802152161601,5297,25.0217497,121.5191579,553326888
106,中正區,板溪里,0.1335764003977461,0.32383162081537953,0.40238647663241633,0.14020550215445807,3017,25.0253933,121.5205854,553426899
106,中正區,螢圃里,0.1355796229442439,0.3287204171680706,0.4113517849979944,0.12434817488969113,4986,25.024738,121.5177304,553426897
106,中正區,螢雪里,0.1067484662576687,0.29865030674846627,0.4343558282208589,0.16024539877300614,4075,25.0240827,121.5148753,553426894
106,中正區,永功里,0.1016120268067379,0.2785727223329107,0.4477449737366419,0.17207027712370948,5521,25.0260801,121.5120202,553426899
106,中正區,永昌里,0.07332193244976486,0.23279179136383069,0.4771269773407439,0.21675929884566053,4678,25.0267511,121.5091649,553426900
106,中正區,龍興里,0.12022843402464684,0.2942590922753231,0.4247069431920649,0.16080553050796514,3327,25.0289885,121.5095218,553526907
106,中正區,忠勤里,0.04279835390946502,0.18436213991769548,0.4709465020576132,0.30189300411522635,6075,25.0289963,121.5066666,553526906
106,中正區,廈安里,0.12442271121977723,0.30942678619940234,0.42814452594403696,0.1380059766367835,3681,25.031817,121.5059527,553526914
106,中正區,愛國里,0.13763440860215054,0.3164874551971326,0.44014336917562724,0.1057347670250896,2790,25.0343023,121.5066666,553626921
106,中正區,南門里,0.15568862275449102,0.3515825491873396,0.3917878528656972,0.1009409751924722,2338,25.0330479,121.5105925,553626918
106,中正區,龍光里,0.17729766803840877,0.3683127572016461,0.3820301783264746,0.0723593964334705,2916,25.0297239,121.5134477,553526910
106,中正區,南福里,0.17378351539225423,0.34083636764868147,0.4025157232704403,0.08286439368862408,9063,25.0283817,121.5191579,553426907
106,中正區,龍福里,0.15737572952304288,0.3614409337894949,0.39585429663916283,0.08532904004829946,4969,25.0330321,121.5163029,553626920
106,中正區,新營里,0.19788262972160503,0.35341785387531044,0.37380734544503985,0.0748921709580447,7651,25.0320252,121.5205854,553526918
106,中正區,建國里,0.15449654112221367,0.3466564181398924,0.41352805534204456,0.08531898539584935,1301,25.0371871,121.5127339,553626930
106,中正區,光復里,0.11094542201014017,0.31702952579779303,0.4601849090366836,0.11184014315538324,3353,25.0449859,121.5105925,553826949
106,中正區,黎明里,0.13354144987859867,0.3399236906000694,0.4297606659729448,0.0967741935483871,2883,25.0444742,121.5155891,553826948
106,中正區,梅花里,0.13883089770354906,0.3629088378566458,0.40640222686151706,0.0918580375782881,2874,25.0452717,121.5262952,553826953
106,中正區,幸福里,0.12101063829787234,0.29274316109422494,0.44490881458966564,0.1413373860182371,5264,25.042955,121.5248678,553826947
106,中正區,幸市里,0.17126937984496124,0.3863856589147287,0.3546511627906977,0.0876937984496124,4128,25.0399497,121.5320047,553726941
106,中正區,東門里,0.19087739686228936,0.3567693201626961,0.3512492736780941,0.1011040092969204,3442,25.0378259,121.5212991,553726933
106,中正區,文北里,0.1983370513080511,0.3859257757047252,0.34435205840600286,0.07138511458122085,4931,25.0396308,121.5277226,553726939
106,中正區,文祥里,0.18142322097378277,0.3568539325842697,0.3838202247191011,0.07790262172284644,6675,25.0359878,121.5262952,553626930
106,中正區,三愛里,0.1875332978156633,0.37133724027703785,0.3633457645178476,0.07778369738945125,7508,25.0363067,121.5305774,553626931
106,大同區,玉泉里,0.07490774907749077,0.28376383763837637,0.4785977859778598,0.16273062730627305,2710,25.050963,121.5077373,553926962
106,大同區,建明里,0.08918222794591114,0.29748873148744365,0.4713457823567289,0.14198325820991628,3106,25.050275,121.5163029,553926962
106,大同區,建功里,0.07558276430421473,0.25806451612903225,0.47162703084530255,0.19472568872145044,4247,25.0525205,121.5138046,554026966
106,大同區,建泰里,0.09633164330450343,0.29406501640322097,0.4646585147628989,0.14494482552937668,3353,25.052256,121.5191579,554026967
106,大同區,永樂里,0.09489352904692991,0.28509406657018815,0.46557783750258425,0.15443456688029772,4837,25.0546065,121.5091649,554026970
106,大同區,朝陽里,0.07865446450655454,0.2743012614395251,0.4778629730398219,0.16918130101409845,4043,25.0548458,121.512377,554026971
106,大同區,星明里,0.09367903103709312,0.27838758516275547,0.46744890234670705,0.16048448145344435,5284,25.0555803,121.5163029,554026973
106,大同區,光能里,0.07418133214524393,0.24972154154600135,0.482290042325685,0.19380708398306973,4489,25.0549087,121.5191579,554026973
106,大同區,大有里,0.06292134831460675,0.26786516853932585,0.48044943820224717,0.18876404494382024,4450,25.0585857,121.5091649,554126978
106,大同區,延平里,0.07281299109481404,0.25170246202200103,0.4714510214772132,0.20403352540597172,3818,25.058825,121.512377,554126979
106,大同區,雙連里,0.06802801852071709,0.23708892318651312,0.4923423958209664,0.20254066247180338,8423,25.0592235,121.5177304,554126981
106,大同區,南芳里,0.07033639143730887,0.2618849040867389,0.46900194606616624,0.19877675840978593,3597,25.0622291,121.5105925,554226985
106,大同區,民權里,0.08668297797972736,0.2810206221600839,0.47098916462775253,0.1613072352324362,5722,25.0618761,121.5177304,554226986
106,大同區,景星里,0.05319571258435887,0.18975784041286226,0.45970623263199684,0.29734021437078206,2519,25.0642271,121.5077373,554226989
106,大同區,隆和里,0.06828034682080925,0.25108381502890176,0.4797687861271676,0.20086705202312138,2768,25.0645459,121.5120202,554226990
106,大同區,蓬萊里,0.07500556421099489,0.27086579123080345,0.463832628533274,0.19029601602492766,4493,25.0648646,121.5163029,554326992
106,大同區,國順里,0.040831758034026465,0.17429111531190927,0.4820415879017013,0.30283553875236296,2645,25.067207,121.508858,554326994
106,大同區,國慶里,0.08854427213606804,0.2876438219109555,0.45572786393196596,0.16808404202101052,3998,25.0671986,121.5120202,554326995
106,大同區,揚雅里,0.046540261019453334,0.20438315685791678,0.46761881310022163,0.28145776902240827,4061,25.0674376,121.5152322,554326996
106,大同區,斯文里,0.06708299758259469,0.22159548751007252,0.4615229653505238,0.24979854955680902,4964,25.0671813,121.5177304,554326996
106,大同區,鄰江里,0.05994962216624685,0.23089840470193115,0.4589420654911839,0.2502099076406381,5955,25.0701872,121.5105925,554427000
106,大同區,至聖里,0.0808863512778684,0.261147362697118,0.4794725394235998,0.17849374660141382,7356,25.0701698,121.5163029,554427001
106,大同區,老師里,0.055534987041836355,0.22917437985931136,0.4846353202517586,0.23065531284709367,5402,25.0749974,121.5098787,554527007
106,大同區,重慶里,0.09420783645655878,0.27001703577512776,0.4533219761499148,0.18245315161839865,5870,25.0763061,121.5155891,554527011
106,大同區,保安里,0.07585839765770562,0.2501996273622571,0.4652648389672611,0.20867713601277615,3757,25.0728224,121.5163029,554427005
106,萬華區,福星里,0.07269076305220884,0.235140562248996,0.46606425702811244,0.22610441767068273,4980,25.0473193,121.5063096,553926953
106,萬華區,萬壽里,0.08074335148990708,0.24639538609420059,0.4700416533162448,0.20281960909964755,3121,25.045002,121.504882,553826947
106,萬華區,西門里,0.09368694148169501,0.270106658979533,0.4615162871144422,0.17469011242432977,3469,25.0426846,121.5034543,553826941
106,萬華區,新起里,0.09888277472069368,0.27813906953476736,0.4370518592629648,0.18592629648157413,5997,25.040687,121.5063096,553726937
106,萬華區,菜園里,0.06493506493506493,0.23917748917748918,0.46374458874458874,0.23214285714285715,5544,25.0423647,121.4991711,553826940
106,萬華區,青山里,0.04767246214245653,0.2047111609646663,0.46139465320620676,0.2862217236866704,5349,25.0387205,121.4977433,553726930
106,萬華區,富民里,0.060873400970445524,0.21746801940891045,0.4525805028672254,0.2690780767534186,4534,25.0380496,121.5005988,553726929
106,萬華區,福音里,0.07734806629834254,0.27790055248618784,0.45138121546961324,0.19337016574585636,3620,25.0377941,121.5030973,553726929
106,萬華區,仁德里,0.10719857365723201,0.2975261867617562,0.42946289280142635,0.16581234677958548,4487,25.0383695,121.504882,553726931
106,萬華區,富福里,0.05860113421550094,0.2108609726757175,0.45849802371541504,0.27203986939336655,5819,25.0340699,121.5005988,553626919
106,萬華區,頂碩里,0.0718562874251497,0.23173652694610777,0.46182634730538924,0.2345808383233533,6680,25.0310814,121.5020266,553526911
106,萬華區,雙園里,0.07620640229335882,0.23506927854753942,0.4794553272814142,0.20926899187768752,4186,25.0304257,121.4991711,553526909
106,萬華區,新忠里,0.10192489744398864,0.25623224992111077,0.443357526033449,0.19848532660145157,3169,25.0291716,121.5030973,553526906
106,萬華區,新和里,0.08831469340532203,0.29206838925311734,0.4670266101041265,0.1525903072374341,7779,25.0277574,121.504882,553426902
106,萬華區,糖廍里,0.07140047206923682,0.23721479150275374,0.459874114870181,0.23151062155782848,5084,25.0340851,121.4948878,553626918
106,萬華區,和平里,0.051425899953249185,0.20508025557113915,0.4474053295932679,0.2960885148823438,6417,25.0321531,121.4954643,553526913
106,萬華區,綠堤里,0.03144342659074028,0.1648923000742758,0.48873483535528595,0.31492943797969797,4039,25.0307759,121.4920321,553526908
106,萬華區,華江里,0.04678957406230134,0.22695486331849968,0.4708200890019072,0.2554354736172918,7865,25.0326129,121.4870345,553526912
106,萬華區,柳鄉里,0.03312075704587533,0.18494137008845918,0.4795309607076733,0.3024069121579922,4861,25.0372488,121.4898903,553626925
106,萬華區,日善里,0.05842230130486358,0.23309608540925267,0.4762752075919336,0.23220640569395018,3372,25.0281079,121.4977433,553426902
106,萬華區,新安里,0.05108979947689625,0.2062772449869224,0.46904969485614645,0.27358326068003486,5735,25.0271017,121.5020266,553426900
106,萬華區,忠德里,0.05246065450911816,0.22158381214089434,0.48238820884336747,0.24356732450662003,4003,25.0257099,121.4952447,553426894
106,萬華區,孝德里,0.045068582625734814,0.20672762900065317,0.4689745264532985,0.2792292619203135,3062,25.0232242,121.4945308,553326887
106,萬華區,和德里,0.046153846153846156,0.18073038073038072,0.47878787878787876,0.2943278943278943,6435,25.0258046,121.4906043,553426894
106,萬華區,錦德里,0.04941176470588235,0.2111764705882353,0.48294117647058826,0.2564705882352941,5100,25.025134,121.4934599,553426892
106,萬華區,全德里,0.08009153318077804,0.24663107042969742,0.45817442156114924,0.2151029748283753,3933,25.0242082,121.4988142,553426891
106,萬華區,保德里,0.0736156351791531,0.25276872964169383,0.4631921824104234,0.21042345276872965,3070,25.0227213,121.4966725,553326886
106,萬華區,銘德里,0.053243431760055804,0.21878632876075332,0.48081841432225064,0.24715182515694026,4301,25.0210738,121.4923891,553326880
106,萬華區,榮德里,0.04753363228699552,0.1961136023916293,0.43946188340807174,0.31689088191330345,3345,25.0192514,121.4916751,553226874
106,萬華區,壽德里,0.07839388145315487,0.24622902060760568,0.47142553643509666,0.20395156150414276,4707,25.0230419,121.5009558,553326888
106,萬華區,興德里,0.0440426518312471,0.21047751506722298,0.4761242466388503,0.26935558646267965,4314,25.016664,121.4984572,553226868
106,萬華區,華中里,0.05545866759679107,0.2192186955005232,0.4658179281478898,0.259504708754796,5734,25.0153516,121.492746,553226862
106,萬華區,日祥里,0.0671219512195122,0.22595121951219513,0.47141463414634144,0.2355121951219512,5125,25.018807,121.5034543,553226876
106,萬華區,忠貞里,0.05554321261941791,0.2043990224394579,0.4734503443679182,0.26660742057320597,4501,25.0246964,121.5023835,553426893
106,萬華區,凌霄里,0.046242774566473986,0.20173410404624278,0.47861271676300576,0.27341040462427746,3460,25.0255523,121.5079157,553426897
106,萬華區,騰雲里,0.07479224376731301,0.2548476454293629,0.48337950138504154,0.18698060941828254,2888,25.0221159,121.5063096,553326886
106,文山區,景行里,0.10607959887182701,0.300219366969602,0.45048574114697587,0.1432152930115951,6382,24.9911815,121.5419957,552626789
106,文山區,景東里,0.11228780563775113,0.3114779629341224,0.4516430462544775,0.12459118517364896,6421,24.9928275,121.5462773,552726796
106,文山區,景美里,0.1295484436650592,0.3329679964927663,0.4230600613765892,0.11442349846558526,4562,24.9918523,121.5391412,552626791
106,文山區,景慶里,0.10147632784659766,0.2949261836076701,0.4486679110809435,0.15492957746478872,5893,24.9945203,121.5334321,552726800
106,文山區,景仁里,0.13674418604651162,0.3183720930232558,0.4216279069767442,0.12325581395348838,4300,24.9971575,121.5391412,552826811
106,文山區,景華里,0.11884451337727801,0.3136874757658007,0.4430011632415665,0.12446684761535479,5158,24.9948247,121.5434229,552726803
106,文山區,萬有里,0.13907680063668923,0.32570632709908476,0.4178272980501393,0.11738957421408674,5026,24.999139,121.5419957,552826818
106,文山區,萬祥里,0.11061837891106184,0.32002956393200294,0.43163340724316335,0.13771864991377186,4059,25.002127,121.5405685,552926829
106,文山區,萬隆里,0.13794162826420892,0.3402457757296467,0.4098310291858679,0.1119815668202765,6510,25.0001455,121.537714,552826821
106,文山區,萬年里,0.1420190167914222,0.3309730932632005,0.4050171960347967,0.12199069391058062,4943,25.0084388,121.5362867,553026850
106,文山區,萬和里,0.13682092555331993,0.2863849765258216,0.41716968477531857,0.1596244131455399,2982,25.0021428,121.5348594,552926828
106,文山區,萬盛里,0.14525782688766115,0.32136279926335176,0.4111418047882136,0.12223756906077347,4344,25.0066011,121.5412821,553026844
106,文山區,興豐里,0.1273957158962796,0.31431792559188276,0.4225479143179256,0.13573844419391207,4435,25.0011203,121.5448501,552826826
106,文山區,興光里,0.11587147030185005,0.293735800064914,0.44336254462836744,0.14703018500486856,3081,25.0000804,121.560548,552826826
106,文山區,興家里,0.09502987902638099,0.3056405771753389,0.4604285089637079,0.13890103483457222,6861,24.9947761,121.560548,552726807
106,文山區,興得里,0.10430586488492948,0.2967706013363029,0.4424647364513734,0.1564587973273942,5388,24.99575,121.555845,552726809
106,文山區,興業里,0.1281947261663286,0.32434077079107504,0.42738336713995945,0.12008113590263692,4930,24.9996899,121.5523426,552826823
106,文山區,興安里,0.13864355940676554,0.3309448425262456,0.41709715047492085,0.11331444759206799,6001,24.9974612,121.5491316,552826814
106,文山區,興福里,0.10688511800273064,0.29217866198556663,0.45816266822703333,0.14277355178466938,5127,24.9968061,121.5462773,552726811
106,文山區,興旺里,0.10151676423629591,0.31798829164449177,0.4562267163384779,0.12426822778073443,7516,25.006191,121.547273,553026844
106,文山區,興泰里,0.11037527593818984,0.30932671081677704,0.43874172185430466,0.14155629139072848,3624,25.0067276,121.55484,553026848
106,文山區,興昌里,0.14788847219957607,0.33523561063101254,0.4115441056579162,0.10533181151149519,6133,25.0067106,121.560548,553026849
106,文山區,試院里,0.12749517063747584,0.3290405666452028,0.4307791371538957,0.11268512556342562,6212,24.9866917,121.5469909,552526773
106,文山區,華興里,0.1321246740345213,0.2997640630820812,0.44058114988203156,0.12753011300136596,8053,24.9901592,121.5519858,552626787
106,文山區,明義里,0.06541334020087561,0.19624002060262682,0.4808138037599794,0.25753283543651817,3883,24.98781,121.561975,552626780
106,文山區,明興里,0.10985691573926869,0.29220985691573925,0.4492845786963434,0.14864864864864866,6290,24.9904622,121.561975,552626791
106,文山區,木柵里,0.13240069947539346,0.3081438920809393,0.4295528353734699,0.12990257307019734,8006,24.9926024,121.5669693,552726800
106,文山區,木新里,0.09051265688151457,0.24803233354605403,0.4685173367368645,0.1929376728355669,9402,24.9857961,121.5705365,552526774
106,文山區,順興里,0.08871674948845366,0.2696579947383806,0.4665302543116048,0.17509500146156096,6842,24.9834962,121.563402,552526764
106,文山區,樟林里,0.11214832101646571,0.3051990146505899,0.4449630493971217,0.13768961493582263,7713,24.9848385,121.557694,552526768
106,文山區,樟新里,0.11555377848860456,0.31607357057177127,0.453218712514994,0.11515393842463015,5002,24.9785433,121.556267,552326742
106,文山區,樟腳里,0.10731132075471699,0.2918632075471698,0.43966194968553457,0.1611635220125786,5088,24.9817547,121.5637587,552426757
106,文山區,萬芳里,0.12313226342003321,0.30077476480354176,0.44701162147205314,0.1290813503043719,7228,24.9990559,121.5705365,552826824
106,文山區,博嘉里,0.11570403926009815,0.28746696866742166,0.4331823329558324,0.1636466591166478,5298,25.0081244,121.5855176,553026859
106,文山區,萬興里,0.16752021563342318,0.2986522911051213,0.4045822102425876,0.12924528301886792,7420,24.9975179,121.5855176,552826822
106,文山區,指南里,0.1398978433598184,0.25056753688989786,0.41316685584562995,0.1963677639046538,3524,24.9702946,121.5997835,552226716
106,文山區,老泉里,0.02158273381294964,0.1606714628297362,0.4856115107913669,0.33213429256594723,834,24.9750283,121.5683962,552326730
106,文山區,忠順里,0.12990130701520405,0.32088556948519603,0.4289143771672446,0.1202987463323553,3749,24.9862281,121.5644722,552526775
106,文山區,萬美里,0.11880455688711347,0.29930463086255366,0.45776002367214086,0.12413078857819204,6759,25.00123,121.5641155,552826831
106,文山區,政大里,0.19303995006242197,0.35268414481897625,0.3831148564294632,0.07116104868913857,6408,24.9855677,121.5912242,552526778
106,文山區,樟文里,0.09363228699551569,0.28161434977578476,0.46977578475336323,0.15497757847533633,5575,24.9821862,121.557694,552426757
106,文山區,興邦里,0.11952899355698733,0.313263719173517,0.4423461453010442,0.12486114196845145,4501,25.0031015,121.5477044,552926834
106,文山區,樟樹里,0.09348763331064217,0.2697980485591105,0.4735647832992966,0.16314953483095077,4407,24.9828413,121.560548,552426760
106,南港區,南港里,0.06779954915900815,0.252470955436102,0.48656147043523496,0.19316802496965493,5767,25.0562606,121.6090553,554126995
106,南港區,中南里,0.050305321314335565,0.22681011922070368,0.4713579528932829,0.2515266065716778,3439,25.0468248,121.6069157,553926974
106,南港區,新富里,0.0693450742982939,0.259768849752339,0.4716565767749037,0.1992294991744634,3634,25.0533299,121.6172567,554026991
106,南港區,三重里,0.15297805642633228,0.3266457680250784,0.3829153605015674,0.13746081504702196,6380,25.0580584,121.6154739,554127000
106,南港區,東新里,0.06291895185862278,0.24085923217550273,0.4690737355271176,0.22714808043875687,6564,25.05563,121.6004967,554126992
106,南港區,新光里,0.08158575122091354,0.26400459638035045,0.4610744039069233,0.1933352484918127,3481,25.0435423,121.598357,553826965
106,南港區,東明里,0.125,0.2989642184557439,0.4352636534839925,0.14077212806026365,4248,25.052979,121.6004967,554026987
106,南港區,西新里,0.05823896464062861,0.24913334874046683,0.47030275017333023,0.2223249364455743,4327,25.0528421,121.5926508,554026985
106,南港區,玉成里,0.07211101000909918,0.2543221110100091,0.4745222929936306,0.19904458598726116,4396,25.0513789,121.5848043,554026980
106,南港區,合成里,0.08285348688419705,0.2741522712731926,0.45585412667946257,0.1871401151631478,6252,25.0480747,121.5819509,553926972
106,南港區,成福里,0.0806382675594814,0.2781022937740419,0.4618891579997151,0.17937028066676164,7019,25.0434047,121.5905109,553826962
106,南港區,萬福里,0.09472880061115355,0.2915711739241151,0.4481792717086835,0.16552075375604788,3927,25.0460762,121.5848043,553826968
106,南港區,鴻福里,0.08927716610818573,0.2838678793681187,0.4463858305409287,0.18046912398276688,4178,25.0434248,121.5848043,553826961
106,南港區,百福里,0.0703538023586824,0.24278161854412364,0.4812932086213908,0.20557137047580318,4918,25.0354508,121.5905109,553626942
106,南港區,聯成里,0.07421707421707421,0.27713427713427713,0.4573144573144573,0.19133419133419133,4662,25.0476391,121.5880143,553926972
106,南港區,舊莊里,0.060857039971191934,0.21534029528267914,0.48337534509662705,0.24042731964950187,8331,25.0278254,121.6368663,553426932
106,南港區,中研里,0.1309650680876258,0.2875074008288928,0.4165778567199526,0.16494967436352873,8445,25.0428272,121.6126212,553826966
106,南港區,九如里,0.07863041982105988,0.24982794218857537,0.46145905024088096,0.21008258774948382,5812,25.0253005,121.6026364,553426917
106,南港區,仁福里,0.0839323877987177,0.2644258791529046,0.49621138527297454,0.15543034777540315,5147,25.0374293,121.5933641,553626948
106,南港區,重陽里,0.15513626834381553,0.32767295597484275,0.4060796645702306,0.1111111111111111,4770,25.0574712,121.5955039,554126995
106,內湖區,西湖里,0.09218586582997161,0.2970267443597789,0.44643657552666965,0.16435081428357987,6693,25.082763,121.5669693,554727031
106,內湖區,西康里,0.12242762469480294,0.32496221369608186,0.4292524125101732,0.12335774909894198,8601,25.0900858,121.5584075,554827039
106,內湖區,西安里,0.10699048244174598,0.33754512635379064,0.43944863800459466,0.11601575319986872,6094,25.093369,121.5669693,554927044
106,內湖區,港墘里,0.10218978102189781,0.3242700729927007,0.4416058394160584,0.13193430656934307,5480,25.0780918,121.5755304,554527027
106,內湖區,港都里,0.10793969849246231,0.3210050251256281,0.4373869346733668,0.13366834170854272,4975,25.0812377,121.5762438,554627031
106,內湖區,港富里,0.09409572609758939,0.3053452893909398,0.4498660766274601,0.1506929078840107,8587,25.0832156,121.5790974,554727035
106,內湖區,港華里,0.10346971769680388,0.32956099987563736,0.4366372341748539,0.1303320482527049,8041,25.0886972,121.5755304,554827041
106,內湖區,內湖里,0.11330316742081448,0.3093212669683258,0.44904977375565613,0.12832579185520362,5525,25.084161,121.5919375,554727039
106,內湖區,湖濱里,0.12579702444208288,0.34444739638682254,0.42043039319872477,0.10932518597236981,7528,25.0840253,121.5840909,554727037
106,內湖區,紫星里,0.08911973756150902,0.3089119737561509,0.4496992892290869,0.15226899945325315,7316,25.0788589,121.5919375,554627031
106,內湖區,大湖里,0.12774890043982406,0.36065573770491804,0.420031987205118,0.09156337465013994,5002,25.0925629,121.6040629,554927052
106,內湖區,金龍里,0.07869249394673124,0.28692493946731235,0.4685230024213075,0.16585956416464892,4956,25.0858013,121.5962172,554727042
106,內湖區,金瑞里,0.08945793149318257,0.3036248752909877,0.4517791819088793,0.15513801130695046,6014,25.1009649,121.5741036,555127053
106,內湖區,碧山里,0.08414595784838,0.29396036489462096,0.4564328405158855,0.16546083674111356,6358,25.1022236,121.5912242,555127058
106,內湖區,紫雲里,0.08707074498029649,0.2758491274160255,0.47982735972978047,0.15725276787389755,5329,25.0775115,121.5976437,554527031
106,內湖區,清白里,0.1340956340956341,0.35745841995842,0.4204781704781705,0.08796777546777547,7696,25.0814879,121.5976437,554627036
106,內湖區,葫洲里,0.11891297518064718,0.33270499528746467,0.45098963242224316,0.097392397109645,6366,25.0715139,121.6062025,554427023
106,內湖區,紫陽里,0.10811535881958417,0.3413816230717639,0.428169014084507,0.12233400402414486,7455,25.0780494,121.5869443,554527029
106,內湖區,瑞陽里,0.106828655215752,0.31420192710515293,0.4425359586649909,0.13643345901410417,7161,25.0759139,121.5819509,554527025
106,內湖區,瑞光里,0.0931924882629108,0.32652582159624416,0.4438967136150235,0.1363849765258216,4260,25.0735993,121.5805241,554427021
106,內湖區,五分里,0.06632707205773108,0.25989599915101347,0.49984081502706146,0.173936113764194,9423,25.0668416,121.6147607,554327017
106,內湖區,東湖里,0.06829691795688034,0.2678338880046303,0.49804659238894516,0.1658226016495442,6911,25.0701436,121.6176133,554427023
106,內湖區,樂康里,0.068929774552993,0.2851775071261985,0.4795283752267427,0.1663643430940658,7718,25.0707949,121.6204658,554427025
106,內湖區,內溝里,0.08140334785599633,0.281816097225407,0.4620499885347397,0.17473056638385692,4361,25.0968294,121.6140476,555027058
106,內湖區,週美里,0.0980011104941699,0.2915047196002221,0.4314269850083287,0.1790671848972793,7204,25.0570181,121.5833776,554126991
106,內湖區,行善里,0.07227162489894907,0.24898949070331447,0.4734033953112369,0.2053354890864996,6185,25.0547234,121.5762438,554026985
106,內湖區,石潭里,0.11101766190075694,0.30782169890664424,0.432296047098402,0.1488645920941968,3567,25.0614689,121.5897976,554227002
106,內湖區,湖興里,0.08635273324075243,0.2826663300088373,0.46269410427976265,0.16828683247064766,7921,25.0705903,121.5876576,554427018
106,內湖區,湖元里,0.1002,0.3234,0.4478,0.1286,5000,25.0638455,121.5741036,554227003
106,內湖區,安湖里,0.08666087962962964,0.3033854166666667,0.48249421296296297,0.12745949074074073,6912,25.0708176,121.6147607,554427024
106,內湖區,秀湖里,0.12493501992722232,0.3404955813550511,0.4338936059608387,0.10067579275688789,5771,25.0814656,121.6033497,554627038
106,內湖區,安泰里,0.0683777822338079,0.2658913174253058,0.49528774814517745,0.17044315219570885,4987,25.0819142,121.6154739,554627041
106,內湖區,金湖里,0.15143695014662756,0.36574780058651024,0.4065689149560117,0.07624633431085044,8525,25.0759843,121.6069157,554527030
106,內湖區,康寧里,0.10298068312651913,0.3103492388384291,0.47064091083535886,0.11602916719969297,7817,25.0754676,121.6119081,554527031
106,內湖區,明湖里,0.07849617847552158,0.30241685602148316,0.4792398264821318,0.13984713902086346,4841,25.0712444,121.6115515,554427024
106,內湖區,蘆洲里,0.029801324503311258,0.17466887417218543,0.5033112582781457,0.29221854304635764,1208,25.0614264,121.60121,554227004
106,內湖區,麗山里,0.1083348871900056,0.3028155882901361,0.442849151594257,0.14600037292560133,5363,25.0822477,121.5719634,554627032
106,內湖區,寶湖里,0.17051298958195965,0.3749175787946723,0.3770275616510616,0.07754186997230647,7583,25.0707265,121.5955039,554427019
106,內湖區,南湖里,0.14276960784313725,0.3382352941176471,0.44893790849673204,0.07005718954248366,4896,25.0672008,121.6076289,554327016
106,士林區,仁勇里,0.07107023411371237,0.24498327759197325,0.4927536231884058,0.19119286510590858,3588,25.0890365,121.5262952,554827030
106,士林區,義信里,0.0869269949066214,0.25534804753820034,0.4685908319185059,0.1891341256366723,2945,25.0883828,121.5234403,554827029
106,士林區,福林里,0.10424155283968368,0.2864845434938893,0.43565780014378147,0.1736161035226456,2782,25.0928178,121.535573,554927037
106,士林區,福德里,0.09013574660633485,0.25429864253393664,0.4497737556561086,0.20579185520361992,5525,25.0926976,121.5220129,554927033
106,士林區,福志里,0.12773879421452097,0.33753401116998427,0.4140054417871975,0.1207217528282973,6983,25.0983,121.5320047,555027041
106,士林區,舊佳里,0.10562032364712023,0.2954585000870019,0.4318775013050287,0.16704367496084913,5747,25.0973296,121.5248678,555027039
106,士林區,福佳里,0.10525568181818182,0.2919034090909091,0.4362215909090909,0.1666193181818182,7040,25.0968537,121.5184441,555027037
106,士林區,後港里,0.07921852000535261,0.26361568312592,0.4600562023283822,0.19710959454034524,7473,25.0922212,121.5155891,554927032
106,士林區,福中里,0.07285412948239493,0.2579912380334253,0.46827843582670775,0.200876196657472,6163,25.0869162,121.5155891,554727025
106,士林區,前港里,0.07618820157630762,0.2686887986625269,0.4578457129209458,0.19727728684021972,4187,25.0860667,121.5220129,554727026
106,士林區,百齡里,0.0765891472868217,0.262015503875969,0.4522480620155039,0.2091472868217054,6450,25.0841752,121.5173735,554727022
106,士林區,承德里,0.09904090820121354,0.3069093756116657,0.4364846349579174,0.15756508122920337,5109,25.0830781,121.5234403,554727022
106,士林區,福華里,0.04890185312285518,0.212079615648593,0.49193548387096775,0.24708304735758407,5828,25.0817702,121.5177304,554627019
106,士林區,明勝里,0.09122730255961496,0.28177641653905056,0.46466856267775103,0.16232771822358347,4571,25.0794357,121.5220129,554627017
106,士林區,福順里,0.06058726220016543,0.2162944582299421,0.4681555004135649,0.25496277915632753,4836,25.0817882,121.5120202,554627018
106,士林區,富光里,0.04449388209121246,0.1939191694475343,0.4831294030404153,0.27845754542083795,5394,25.0801436,121.5077373,554627015
106,士林區,葫蘆里,0.056387153030082834,0.2363028629559657,0.47885481761371895,0.22845516640023253,6881,25.0844586,121.5063096,554727020
106,士林區,葫東里,0.05635300372142477,0.2402977139819245,0.4758107389686337,0.227538543328017,3762,25.0857671,121.5120202,554727023
106,士林區,社子里,0.051247242491091125,0.21109791277787204,0.4690310537926353,0.2686237909384015,5893,25.0914084,121.5105925,554827030
106,士林區,社新里,0.04716640596799423,0.20803754060883167,0.47780050535434965,0.2669955480688245,8311,25.0877834,121.5034543,554827024
106,士林區,社園里,0.04987193008889559,0.21289739340063282,0.46285972577971973,0.27437095073075185,6637,25.0920806,121.5077373,554927030
106,士林區,永倫里,0.053089382123575286,0.22495500899820037,0.46070785842831435,0.26124775044991,6668,25.0949103,121.5041681,554927032
106,士林區,福安里,0.026509244820672757,0.15705056805524617,0.4395188237914903,0.3769213633325908,4489,25.0966662,121.4944863,555027031
106,士林區,富洲里,0.03359173126614987,0.18106312292358803,0.4453672942045035,0.3399778516057586,5418,25.1053072,121.465614,555127032
106,士林區,岩山里,0.11759020618556701,0.29381443298969073,0.44684278350515466,0.14175257731958762,3104,25.103426,121.535573,555127047
106,士林區,名山里,0.11094061684824305,0.3291391744667792,0.43378855301519104,0.1261316556697867,6517,25.102951,121.52915,555127045
106,士林區,德行里,0.101157523905385,0.29869149471565176,0.4443885254151988,0.15576245596376448,3974,25.1029705,121.5234403,555127043
106,士林區,德華里,0.09517295290209107,0.30447527848348643,0.4316982606996287,0.16865350791479383,5117,25.1009909,121.5205854,555127041
106,士林區,聖山里,0.12733118971061094,0.32840300107181136,0.4216505894962487,0.12261521972132905,4665,25.1073349,121.5316479,555227049
106,士林區,忠誠里,0.1284153005464481,0.3395784543325527,0.4170569867291179,0.11494925839188135,5124,25.1063552,121.5273658,555227047
106,士林區,芝山里,0.11091728448902456,0.34074720162814365,0.43334787032998984,0.11498764355284198,6879,25.1139926,121.5469909,555327056
106,士林區,東山里,0.09917179868337227,0.28795922701210447,0.4576343172648121,0.1552346570397112,4709,25.1226213,121.5441365,555527059
106,士林區,三玉里,0.117735565168328,0.33082565356403987,0.43238668422042503,0.11905209704720707,5317,25.1125498,121.5334321,555327052
106,士林區,蘭雅里,0.11061946902654868,0.33893805309734515,0.42351453855878635,0.12692793931731985,7910,25.1099178,121.5277226,555327049
106,士林區,蘭興里,0.11802611497371544,0.33067661522808206,0.4383584873664575,0.11293878243174496,5897,25.108275,121.5234403,555227047
106,士林區,天福里,0.11547262805844041,0.32494279176201374,0.4474564337264566,0.11212814645308924,5681,25.1168644,121.5320047,555427054
106,士林區,天祿里,0.12089773449078975,0.34024984120262547,0.4300232902816007,0.10882913402498412,4723,25.1135595,121.52915,555327052
106,士林區,天壽里,0.12780806979280263,0.35572519083969467,0.4200654307524537,0.09640130861504907,4585,25.1168846,121.5262952,555427053
106,士林區,天和里,0.1300174520069808,0.34889470622454916,0.4237929028504945,0.09729493891797557,6876,25.1219898,121.535573,555527057
106,士林區,天山里,0.12686330478908975,0.3621947351728513,0.41817316841103713,0.09276879162702188,6306,25.1195164,121.5320047,555527055
106,士林區,天玉里,0.13338376197680282,0.3591780131114473,0.4126323751891074,0.09480584972264246,7932,25.1205262,121.5277226,555527054
106,士林區,天母里,0.13315754779169414,0.35201054713249835,0.40721819380355967,0.10761371127224786,6068,25.1316081,121.5341457,555727058
106,士林區,永福里,0.10374149659863946,0.22448979591836735,0.4302721088435374,0.24149659863945577,1176,25.1060373,121.5469909,555227051
106,士林區,公館里,0.04377880184331797,0.18663594470046083,0.4792626728110599,0.2903225806451613,1302,25.1265335,121.5612615,555627063
106,士林區,新安里,0.08538587848932677,0.23590585659551178,0.4482758620689655,0.23043240284619596,1827,25.1259036,121.5526993,555627061
106,士林區,陽明里,0.10097833682739343,0.28232005590496156,0.4112508735150245,0.20545073375262055,2862,25.1398352,121.5498451,555927061
106,士林區,菁山里,0.03253652058432935,0.1852589641434263,0.4641434262948207,0.31806108897742363,1506,25.148058,121.5655424,556127062
106,士林區,平等里,0.0303886925795053,0.16325088339222615,0.4515901060070671,0.3547703180212014,1415,25.1473359,121.5798108,556127065
106,士林區,溪山里,0.020334059549745823,0.15613652868554828,0.4793028322440087,0.3442265795206972,1377,25.1247795,121.5855176,555627068
106,士林區,翠山里,0.13428120063191154,0.3744075829383886,0.391390205371248,0.09992101105845182,2532,25.1072998,121.5641155,555227056
106,士林區,臨溪里,0.1059291395516992,0.32357194504699927,0.41106290672451196,0.1594360086767896,2766,25.102039,121.5526993,555127049
106,北投區,建民里,0.09149318941146235,0.2896427653559496,0.44538679002827036,0.17347725520431764,3891,25.1035035,121.5127339,555127042
106,北投區,文林里,0.10038510911424904,0.30166880616174585,0.43106546854942235,0.1668806161745828,3895,25.1085514,121.5152322,555227046
106,北投區,石牌里,0.09695463020509633,0.2838201781644914,0.4385746840687798,0.18065050756163248,4827,25.109501,121.516984,555227047
106,北投區,福興里,0.0980952380952381,0.2687301587301587,0.46476190476190476,0.1684126984126984,6300,25.1113022,121.5105925,555327046
106,北投區,榮光里,0.08225108225108226,0.2626777983920841,0.4710884353741497,0.18398268398268397,6468,25.1129456,121.5148753,555327048
106,北投區,榮華里,0.13352021245205076,0.3486279138388905,0.4017409265269991,0.11611094718205961,6778,25.1135794,121.5234403,555327051
106,北投區,裕民里,0.10415779764438768,0.31956861075635024,0.43252447850149,0.1437491130977721,7047,25.113599,121.5177304,555327049
106,北投區,振華里,0.10780080598733449,0.2990788716177317,0.4471790443293034,0.1459412780656304,6948,25.1159149,121.5191579,555427051
106,北投區,永和里,0.11248634874408446,0.3256886300206286,0.43441329935687417,0.12741172187841282,8241,25.1319657,121.5270089,555727056
106,北投區,永欣里,0.16633550950894124,0.38177689469202386,0.36403633267101904,0.0878512631280159,7046,25.1227038,121.5212991,555527054
106,北投區,永明里,0.11087962962962963,0.3037037037037037,0.4444444444444444,0.14097222222222222,4320,25.1169242,121.5148753,555427050
106,北投區,東華里,0.10933199899924943,0.2769577182887165,0.44633475106329745,0.16737553164873656,3997,25.1220704,121.5127339,555527052
106,北投區,吉利里,0.1006876227897839,0.2981335952848723,0.44597249508840864,0.15520628683693516,6108,25.1162708,121.5120202,555427049
106,北投區,吉慶里,0.09991386735572783,0.2917743324720069,0.46016365202411713,0.14814814814814814,4644,25.1116574,121.5034543,555327045
106,北投區,尊賢里,0.08365200764818356,0.28369980879541107,0.45506692160611856,0.1775812619502868,4184,25.1168642,121.5080942,555427049
106,北投區,立賢里,0.08804640563496996,0.2842345141910089,0.4640563496996064,0.16366273047441476,4827,25.1146462,121.5020266,555427046
106,北投區,立農里,0.09046728971962617,0.2801246105919003,0.45133956386292834,0.17806853582554516,8025,25.1193581,121.5059527,555527049
106,北投區,八仙里,0.08347927612375948,0.27301031329052344,0.44833625218914186,0.1951741583965752,5139,25.1211562,121.4884624,555527046
106,北投區,洲美里,0.04056246619794483,0.1914548404542996,0.4705246078961601,0.29745808545159547,1849,25.1028683,121.5041681,555127039
106,北投區,奇岩里,0.0887651490337373,0.29042471885577026,0.4595479855879463,0.16126214652254614,9159,25.1300274,121.5127339,555727053
106,北投區,清江里,0.05130533484676504,0.2195232690124858,0.4757094211123723,0.25346197502837686,8810,25.1279091,121.5020266,555627050
106,北投區,中央里,0.0807048908185417,0.25871536202273016,0.45766824160388203,0.20291150555484613,7831,25.1285818,121.4991711,555727050
106,北投區,長安里,0.07249955900511554,0.25930499206209207,0.4925030869641912,0.17569236196860116,5669,25.134956,121.5016696,555827051
106,北投區,大同里,0.08954948301329395,0.25997045790251105,0.4555022156573117,0.19497784342688332,5416,25.1314122,121.4956017,555727049
106,北投區,溫泉里,0.08575605002436251,0.27367224297547504,0.46369985382491474,0.17687185317524767,6157,25.1335309,121.5063096,555827052
106,北投區,林泉里,0.08632840028188865,0.2639182522903453,0.4689922480620155,0.18076109936575052,2838,25.1399632,121.5155891,555927053
106,北投區,中心里,0.09461037877523777,0.3000166861338228,0.4623727682296012,0.14300016686133823,5993,25.1401619,121.5063096,555927051
106,北投區,中庸里,0.06086735987826528,0.25158508749682984,0.4572660410854679,0.230281511539437,3943,25.1386081,121.5002419,555927050
106,北投區,開明里,0.08667424119461127,0.27316993994481414,0.46242493101769194,0.17773088784288266,6161,25.1434874,121.5034543,556027049
106,北投區,中和里,0.08954233915542781,0.28122927260667696,0.4452796816272386,0.18394870661065665,4523,25.144497,121.4991711,556027048
106,北投區,智仁里,0.07007508044333215,0.2584912406149446,0.4662138005005363,0.205219878441187,5594,25.1437646,121.4952447,556027048
106,北投區,秀山里,0.0644304217867818,0.23480571238791098,0.4330787113915643,0.26768515443374297,3011,25.1533058,121.492746,556227043
106,北投區,文化里,0.11433901918976545,0.31529850746268656,0.43523454157782515,0.13512793176972282,3752,25.13937,121.4956017,555927049
106,北投區,豐年里,0.052229613205222965,0.23306233062330622,0.4730229120473023,0.24168514412416853,4059,25.1345789,121.4906043,555827048
106,北投區,稻香里,0.07981035163966811,0.23903595416831291,0.4610825760568945,0.22007111813512445,5062,25.1440411,121.4870345,556027046
106,北投區,桃源里,0.07267857142857143,0.25035714285714283,0.4567857142857143,0.22017857142857142,5600,25.1384182,121.4827508,555927046
106,北投區,一德里,0.07108792846497765,0.24843517138599105,0.4631892697466468,0.2172876304023845,6710,25.1304958,121.4713265,555727044
106,北投區,關渡里,0.0696999031945789,0.2537270087124879,0.44491771539206193,0.23165537270087125,10330,25.1169113,121.4670422,555427040
106,北投區,泉源里,0.048682447521214825,0.2005359535506923,0.4368021438142028,0.31397945511389014,2239,25.155518,121.5227266,556327048
106,北投區,湖山里,0.05243209096651927,0.21415034744156664,0.4396715097915351,0.29374605180037905,1583,25.1514747,121.5398548,556227054
106,北投區,大屯里,0.050816696914700546,0.18330308529945555,0.4382940108892922,0.3275862068965517,1102,25.1595596,121.5055958,556327042
106,北投區,湖田里,0.037037037037037035,0.1655773420479303,0.47167755991285404,0.32570806100217864,918,25.1825708,121.5541264,556927029
